site,country,largest_distance,best months for XC,num of all flights,num of 200k flights,num of 100k flights,num of 50k flights,num of 20k flights,XContest days per month,Xconotest days per year,link to XContest,longitude,latitude
Col de la Fo...,France,261.33 km,Jul Jun May,8508,5,60,608,3297,Jul:25 Aug:24 Jun:22 Sep:21 May:19 Apr:11 Oct:3 Mar:1 Nov:0 Dec:0 Feb:0 Jan:0,116,https://www.xcontest.org/world/en/flights-search/?filter[point]=6.246583%2045.814&list[sort]=pts&list[dir]=down&filter[radius]=1000&list[num]=100,6.246583,45.814
"Chalvet, St ...",France,194.59 km,Aug,4968,16,432,1557,3433,Aug:23 Sep:23 Oct:14 Jul:13 Jun:7 May:6 Apr:5 Feb:2 Nov:2 Mar:2 Jan:0,90,https://www.xcontest.org/world/en/flights-search/?filter[point]=6.4796%2043.9796&list[sort]=pts&list[dir]=down&filter[radius]=1000&list[num]=100,6.4796,43.9796
Planfait,France,178.06 km,May Jul Jun Apr,3590,0,45,447,1627,Jul:17 May:16 Jun:15 Aug:15 Apr:13 Sep:12 Mar:6 Oct:2 Feb:2 Nov:0 Jan:0 Dec:0,93,https://www.xcontest.org/world/en/flights-search/?filter[point]=6.22298%2045.85328&list[sort]=pts&list[dir]=down&filter[radius]=1000&list[num]=100,6.22298,45.85328
Chabre,France,299.94 km,Jul Aug,3274,91,425,1428,2686,Jul:14 Aug:14 Jun:12 Sep:7 May:7 Apr:6 Mar:3 Oct:1 Feb:0 Dec:0,61,https://www.xcontest.org/world/en/flights-search/?filter[point]=5.76288%2044.2975&list[sort]=pts&list[dir]=down&filter[radius]=1000&list[num]=100,5.76288,44.2975
Saint Hilaire,France,308.54 km,Apr May Jun Jul Mar,2557,28,223,658,1239,Aug:14 Sep:12 May:11 Jun:10 Apr:10 Jul:9 Mar:8 Oct:2 Feb:2 Jan:1 Dec:1 Nov:1,76,https://www.xcontest.org/world/en/flights-search/?filter[point]=5.891%2045.31035&list[sort]=pts&list[dir]=down&filter[radius]=1000&list[num]=100,5.891,45.31035
Planpraz,France,354.54 km,Jul,1642,17,212,452,917,Aug:13 Jul:10 Jun:7 Mar:5 Apr:5 Sep:5 Feb:2 Jan:1 May:1 Dec:1 Oct:1 Nov:0,48,https://www.xcontest.org/world/en/flights-search/?filter[point]=6.85062%2045.93692&list[sort]=pts&list[dir]=down&filter[radius]=1000&list[num]=100,6.85062,45.93692
Mont Lachat,France,203.94 km,Jul,1533,1,27,356,888,Jul:11 Aug:10 Jun:3 Mar:1 Apr:1 Sep:1 Feb:1 Oct:0 Dec:0 May:0 Jan:0,29,https://www.xcontest.org/world/en/flights-search/?filter[point]=6.47655%2045.958467&list[sort]=pts&list[dir]=down&filter[radius]=1000&list[num]=100,6.47655,45.958467
Mont Gross,France,50.72 km,Jan Dec Feb,1510,0,0,1,27,Feb:9 Jan:8 Dec:8 Mar:6 Oct:4 Nov:3 Apr:2 May:0 Sep:0 Aug:0 Jun:0,39,https://www.xcontest.org/world/en/flights-search/?filter[point]=7.4426%2043.76552&list[sort]=pts&list[dir]=down&filter[radius]=1000&list[num]=100,7.4426,43.76552
St. Jean,France,122.04 km,Jul Jun Aug,1345,0,5,141,835,Aug:8 Jul:8 Jun:3 Sep:2 May:0 Mar:0 Apr:0 Oct:0,21,https://www.xcontest.org/world/en/flights-search/?filter[point]=6.369017%2044.402617&list[sort]=pts&list[dir]=down&filter[radius]=1000&list[num]=100,6.369017,44.402617
St. Vincent ...,France,98.33 km,Sep Jun,1303,0,0,61,331,Sep:9 Jun:7 Aug:6 Jul:5 May:5 Apr:3 Oct:3 Mar:1 Dec:0 Feb:0 Jan:0,38,https://www.xcontest.org/world/en/flights-search/?filter[point]=6.37187%2044.44577&list[sort]=pts&list[dir]=down&filter[radius]=1000&list[num]=100,6.37187,44.44577
Gourdon,France,345.22 km,May Mar Jun Oct Feb Sep Apr Jul Aug Jan Dec Nov,1217,16,32,69,236,Aug:8 Sep:7 Jul:6 May:6 Jun:5 Oct:4 Mar:4 Apr:3 Feb:3 Dec:3 Jan:3 Nov:2,51,https://www.xcontest.org/world/en/flights-search/?filter[point]=6.947228%2043.7255&list[sort]=pts&list[dir]=down&filter[radius]=1000&list[num]=100,6.947228,43.7255
Plaine Joux,France,153.51 km,May Jul Jun Mar Apr Aug Sep,978,0,13,59,269,May:7 Sep:6 Jul:6 Jun:5 Aug:5 Mar:3 Apr:3 Feb:1 Oct:1 Nov:0 Dec:0 Jan:0,38,https://www.xcontest.org/world/en/flights-search/?filter[point]=6.73942%2045.94948&list[sort]=pts&list[dir]=down&filter[radius]=1000&list[num]=100,6.73942,45.94948
Montlambert,France,174.19 km,May Jun Mar Apr Jul,892,0,52,241,531,May:7 Mar:5 Jun:4 Apr:4 Aug:4 Jul:3 Sep:2 Feb:1 Oct:0 Nov:0 Jan:0 Dec:0,31,https://www.xcontest.org/world/en/flights-search/?filter[point]=6.104728%2045.552715&list[sort]=pts&list[dir]=down&filter[radius]=1000&list[num]=100,6.104728,45.552715
Salève,France,148.98 km,Jun May Aug Jul Apr Sep Mar,684,0,14,78,292,Jul:5 Jun:5 May:5 Apr:4 Aug:4 Sep:3 Mar:2 Oct:1 Jan:0 Feb:0 Dec:0 Nov:0,30,https://www.xcontest.org/world/en/flights-search/?filter[point]=6.18907%2046.1487&list[sort]=pts&list[dir]=down&filter[radius]=1000&list[num]=100,6.18907,46.1487
Marlens,France,230.04 km,Apr Mar May,635,8,97,233,299,May:6 Apr:5 Jul:4 Jun:3 Mar:2 Aug:2 Sep:2 Oct:0 Feb:0 Dec:0,25,https://www.xcontest.org/world/en/flights-search/?filter[point]=6.33938%2045.77753&list[sort]=pts&list[dir]=down&filter[radius]=1000&list[num]=100,6.33938,45.77753
Samoens,France,189.42 km,Jul May Jun Aug Mar Apr,575,0,8,31,101,Aug:7 Jul:5 May:4 Jun:3 Apr:2 Sep:1 Mar:1 Oct:0 Dec:0 Jan:0,24,https://www.xcontest.org/world/en/flights-search/?filter[point]=6.69765%2046.0539&list[sort]=pts&list[dir]=down&filter[radius]=1000&list[num]=100,6.69765,46.0539
Les St. Apot...,France,150.06 km,Jul Jun,553,0,42,239,385,Jul:3 Aug:3 Sep:2 Jun:1 May:0 Oct:0 Apr:0,10,https://www.xcontest.org/world/en/flights-search/?filter[point]=5.7102%2044.5438&list[sort]=pts&list[dir]=down&filter[radius]=1000&list[num]=100,5.7102,44.5438
Aspres,France,139.61 km,Jul,541,0,39,227,373,Jul:3 Sep:2 Aug:2 Jun:1 May:0 Oct:0 Apr:0,10,https://www.xcontest.org/world/en/flights-search/?filter[point]=5.71182%2044.54107&list[sort]=pts&list[dir]=down&filter[radius]=1000&list[num]=100,5.71182,44.54107
Mieussy,France,118.26 km,Jul May Jun Aug,419,0,3,32,131,Aug:4 Jul:3 Sep:2 Jun:2 May:2 Mar:1 Apr:0 Nov:0 Oct:0 Feb:0 Jan:0,15,https://www.xcontest.org/world/en/flights-search/?filter[point]=6.54795%2046.13953&list[sort]=pts&list[dir]=down&filter[radius]=1000&list[num]=100,6.54795,46.13953
Bergies,France,152.15 km,Jul Jun Aug May Sep Apr,396,0,3,69,236,Jun:3 Jul:2 Aug:1 Sep:1 May:1 Apr:0 Mar:0 Nov:0,9,https://www.xcontest.org/world/en/flights-search/?filter[point]=5.510277%2044.203008&list[sort]=pts&list[dir]=down&filter[radius]=1000&list[num]=100,5.510277,44.203008
Plan de l'Ai...,France,289.05 km,May Jun,392,6,43,76,151,Sep:7 May:5 Oct:4 Jun:4 Apr:0 Nov:0 Mar:0,20,https://www.xcontest.org/world/en/flights-search/?filter[point]=6.88263%2045.9022&list[sort]=pts&list[dir]=down&filter[radius]=1000&list[num]=100,6.88263,45.9022
Col de Bleyne,France,354.35 km,Sep Jul Aug May Jun Apr,366,17,76,128,266,May:3 Sep:3 Jul:2 Aug:2 Apr:1 Jun:1 Oct:1 Mar:0 Nov:0,14,https://www.xcontest.org/world/en/flights-search/?filter[point]=6.81212%2043.81313&list[sort]=pts&list[dir]=down&filter[radius]=1000&list[num]=100,6.81212,43.81313
Aiguebelette,France,117.66 km,Jul Aug,342,0,2,49,222,Aug:3 Jul:3 Sep:3 Jun:2 May:1 Apr:0 Mar:0 Oct:0,13,https://www.xcontest.org/world/en/flights-search/?filter[point]=5.8069%2045.60173&list[sort]=pts&list[dir]=down&filter[radius]=1000&list[num]=100,5.8069,45.60173
Semnoz,France,144.11 km,Jul Jun,311,0,3,35,139,Jun:3 Jul:2 May:2 Aug:2 Sep:1 Apr:1 Mar:0,11,https://www.xcontest.org/world/en/flights-search/?filter[point]=6.09503%2045.8049&list[sort]=pts&list[dir]=down&filter[radius]=1000&list[num]=100,6.09503,45.8049
Méruz,France,316.69 km,Apr,303,20,131,224,264,Apr:4 May:1 Jun:1 Aug:0 Mar:0 Jul:0 Feb:0 Nov:0,8,https://www.xcontest.org/world/en/flights-search/?filter[point]=6.41485%2045.7853&list[sort]=pts&list[dir]=down&filter[radius]=1000&list[num]=100,6.41485,45.7853
Entrevernes,France,106.96 km,Jun Sep May Jul Apr Aug Mar,298,0,1,10,26,Sep:3 Jun:3 May:2 Jul:2 Apr:1 Aug:1 Mar:0 Feb:0 Oct:0,13,https://www.xcontest.org/world/en/flights-search/?filter[point]=6.19378%2045.78892&list[sort]=pts&list[dir]=down&filter[radius]=1000&list[num]=100,6.19378,45.78892
Verel,France,130.46 km,Jul Jun May Apr Aug Mar Feb,291,0,13,100,210,Apr:3 Jul:2 Jun:1 May:1 Mar:1 Sep:1 Aug:1 Feb:0 Jan:0 Oct:0 Nov:0,12,https://www.xcontest.org/world/en/flights-search/?filter[point]=5.94597%2045.6269&list[sort]=pts&list[dir]=down&filter[radius]=1000&list[num]=100,5.94597,45.6269
Verel-Pragon...,France,114.79 km,Apr Jul Jun Sep May Aug Mar,291,0,13,100,210,Apr:3 Jul:2 Jun:1 May:1 Mar:1 Sep:1 Aug:1 Feb:0 Jan:0 Oct:0 Nov:0,12,https://www.xcontest.org/world/en/flights-search/?filter[point]=5.94625%2045.6268&list[sort]=pts&list[dir]=down&filter[radius]=1000&list[num]=100,5.94625,45.6268
Sambuy,France,222.46 km,Jul,288,10,79,157,224,Jul:3 Aug:2 Jun:0 May:0 Sep:0 Mar:0,8,https://www.xcontest.org/world/en/flights-search/?filter[point]=6.27623%2045.70077&list[sort]=pts&list[dir]=down&filter[radius]=1000&list[num]=100,6.27623,45.70077
Buc,France,92.53 km,Jul Jun,277,0,0,8,144,Jun:1 Sep:1 Aug:0 Jul:0 May:0 Apr:0 Oct:0,4,https://www.xcontest.org/world/en/flights-search/?filter[point]=5.47792%2044.206877&list[sort]=pts&list[dir]=down&filter[radius]=1000&list[num]=100,5.47792,44.206877
Meru,France,201.53 km,Apr,269,20,126,205,240,Apr:4 May:0 Aug:0 Jun:0 Mar:0 Jul:0 Feb:0,7,https://www.xcontest.org/world/en/flights-search/?filter[point]=6.41122%2045.7829&list[sort]=pts&list[dir]=down&filter[radius]=1000&list[num]=100,6.41122,45.7829
Gréolières,France,114.42 km,Mar Sep Aug Oct May Jul Jun Apr Feb Nov,260,0,1,2,60,Sep:2 Jul:1 Mar:1 Oct:1 May:1 Aug:0 Apr:0 Feb:0 Jun:0 Nov:0 Dec:0 Jan:0,11,https://www.xcontest.org/world/en/flights-search/?filter[point]=6.9554%2043.80037&list[sort]=pts&list[dir]=down&filter[radius]=1000&list[num]=100,6.9554,43.80037
Courtet,France,113.82 km,Aug Jul,255,0,1,8,85,Aug:2 Sep:1 Jul:1 Apr:0 May:0 Jun:0 Mar:0 Nov:0 Oct:0,7,https://www.xcontest.org/world/en/flights-search/?filter[point]=5.79667%2044.7693&list[sort]=pts&list[dir]=down&filter[radius]=1000&list[num]=100,5.79667,44.7693
Morzine,France,129.87 km,May Jul Apr Aug Mar Jun Sep Feb Oct Dec,221,0,4,22,76,Aug:1 Jul:1 May:1 Apr:1 Mar:1 Feb:0 Sep:0 Dec:0 Jun:0 Jan:0 Oct:0,11,https://www.xcontest.org/world/en/flights-search/?filter[point]=6.7223%2046.19102&list[sort]=pts&list[dir]=down&filter[radius]=1000&list[num]=100,6.7223,46.19102
La Clusaz,France,305.55 km,Jul Aug,211,7,42,70,117,Aug:3 Jul:3 Sep:0 Jun:0 Nov:0 Apr:0,7,https://www.xcontest.org/world/en/flights-search/?filter[point]=6.46203%2045.88878&list[sort]=pts&list[dir]=down&filter[radius]=1000&list[num]=100,6.46203,45.88878
Sapenay,France,35.49 km,Aug,192,0,0,0,21,Aug:2 May:1 Sep:0 Jul:0 Jun:0 Oct:0 Apr:0 Dec:0,6,https://www.xcontest.org/world/en/flights-search/?filter[point]=5.86655%2045.822&list[sort]=pts&list[dir]=down&filter[radius]=1000&list[num]=100,5.86655,45.822
Chamoux,France,53.02 km,Jun May Aug Jul Apr,185,0,0,2,28,Aug:2 May:1 Sep:1 Jun:1 Apr:1 Jul:0 Mar:0 Oct:0,8,https://www.xcontest.org/world/en/flights-search/?filter[point]=6.25307%2045.52955&list[sort]=pts&list[dir]=down&filter[radius]=1000&list[num]=100,6.25307,45.52955
Serpaton,France,258.42 km,May Apr Jun Jul Aug Mar Sep,166,20,72,90,104,May:1 Apr:1 Aug:1 Jun:0 Sep:0 Jul:0 Mar:0,6,https://www.xcontest.org/world/en/flights-search/?filter[point]=5.590667%2044.910133&list[sort]=pts&list[dir]=down&filter[radius]=1000&list[num]=100,5.590667,44.910133
Moustiers,France,74.44 km,Aug Sep Oct Jul Jun May Apr,163,0,2,6,51,Sep:1 Aug:1 Jul:1 Oct:0 Jun:0 May:0 Apr:0 Mar:0,5,https://www.xcontest.org/world/en/flights-search/?filter[point]=6.267012%2043.853835&list[sort]=pts&list[dir]=down&filter[radius]=1000&list[num]=100,6.267012,43.853835
Montdenier ...,France,143.91 km,Jul Apr Aug Oct Jun Sep,163,0,2,6,51,Sep:1 Aug:1 Jul:1 Oct:0 Jun:0 May:0 Apr:0 Mar:0,5,https://www.xcontest.org/world/en/flights-search/?filter[point]=6.2662%2043.8519&list[sort]=pts&list[dir]=down&filter[radius]=1000&list[num]=100,6.2662,43.8519
Oraison,France,103.27 km,Jul May Jun Sep Aug,162,0,2,20,60,Jul:1 Jun:1 Sep:1 May:1 Aug:1 Mar:0 Oct:0 Feb:0,9,https://www.xcontest.org/world/en/flights-search/?filter[point]=5.92115%2043.89962&list[sort]=pts&list[dir]=down&filter[radius]=1000&list[num]=100,5.92115,43.89962
Puy Aillaud,France,140.25 km,Aug Jul Sep,153,0,13,50,97,Sep:2 Aug:2 Jul:1 Oct:1 Jun:0 May:0 Apr:0,12,https://www.xcontest.org/world/en/flights-search/?filter[point]=6.4781%2044.850333&list[sort]=pts&list[dir]=down&filter[radius]=1000&list[num]=100,6.4781,44.850333
Bisanne,France,205.4 km,Jul May Jun Apr Aug,148,2,39,78,106,Jul:2 Jun:1 May:1 Aug:1 Apr:1 Sep:0,7,https://www.xcontest.org/world/en/flights-search/?filter[point]=6.507133%2045.746967&list[sort]=pts&list[dir]=down&filter[radius]=1000&list[num]=100,6.507133,45.746967
Les Couteaux,France,115.04 km,Jun Jul May Apr Aug Sep,142,0,1,4,37,Jun:1 Apr:1 May:1 Jul:1 Sep:0 Aug:0 Oct:0 Mar:0,7,https://www.xcontest.org/world/en/flights-search/?filter[point]=6.49908%2046.29358&list[sort]=pts&list[dir]=down&filter[radius]=1000&list[num]=100,6.49908,46.29358
Chorges,France,175.48 km,Aug Jul Sep Jun May Oct Apr,138,0,20,44,91,Sep:1 Aug:1 Jun:0 Oct:0 Jul:0 May:0 Mar:0 Nov:0 Apr:0 Jan:0 Dec:0,9,https://www.xcontest.org/world/en/flights-search/?filter[point]=6.271692%2044.60114&list[sort]=pts&list[dir]=down&filter[radius]=1000&list[num]=100,6.271692,44.60114
Les Richards,France,246.42 km,Jul May Apr Aug Mar Jun Sep,138,3,36,63,103,May:1 Jul:1 Apr:1 Aug:1 Jun:1 Mar:0 Sep:0 Nov:0,8,https://www.xcontest.org/world/en/flights-search/?filter[point]=6.23117%2044.68077&list[sort]=pts&list[dir]=down&filter[radius]=1000&list[num]=100,6.23117,44.68077
Ceillac,France,71.62 km,Aug Jul,131,0,0,9,27,Jul:2 Aug:2 Sep:1 Jun:0 May:0 Oct:0 Mar:0 Nov:0,7,https://www.xcontest.org/world/en/flights-search/?filter[point]=6.7846%2044.667533&list[sort]=pts&list[dir]=down&filter[radius]=1000&list[num]=100,6.7846,44.667533
Vesancy,France,212.92 km,Apr Jun Jul May Sep Mar Oct Aug,124,2,25,52,75,Apr:1 Sep:1 Jun:1 Jul:1 May:1 Mar:1 Aug:0 Oct:0,7,https://www.xcontest.org/world/en/flights-search/?filter[point]=6.08043%2046.36792&list[sort]=pts&list[dir]=down&filter[radius]=1000&list[num]=100,6.08043,46.36792
Les gets,France,62.63 km,Aug Jul,123,0,0,18,60,Aug:2 Jul:1 Feb:0 Jun:0 Dec:0 Apr:0 Mar:0 May:0,5,https://www.xcontest.org/world/en/flights-search/?filter[point]=6.64675%2046.168&list[sort]=pts&list[dir]=down&filter[radius]=1000&list[num]=100,6.64675,46.168
Les Gets,France,68.71 km,Jul,123,0,0,18,60,Aug:2 Jul:1 Feb:0 Jun:0 Dec:0 Apr:0 Mar:0 May:0,5,https://www.xcontest.org/world/en/flights-search/?filter[point]=6.64763%2046.1687&list[sort]=pts&list[dir]=down&filter[radius]=1000&list[num]=100,6.64763,46.1687
Les 4 Vallées,France,58.25 km,Jul Jun Aug Mar May,119,0,0,17,74,Jul:1 Aug:1 Sep:0 May:0 Jun:0 Apr:0,6,https://www.xcontest.org/world/en/flights-search/?filter[point]=5.97517%2045.6849&list[sort]=pts&list[dir]=down&filter[radius]=1000&list[num]=100,5.97517,45.6849
Le Revard,France,80.41 km,Jul Aug May Sep Jun,118,0,0,16,73,Jul:1 Aug:1 Sep:0 May:0 Jun:0 Apr:0,6,https://www.xcontest.org/world/en/flights-search/?filter[point]=5.974483%2045.683267&list[sort]=pts&list[dir]=down&filter[radius]=1000&list[num]=100,5.974483,45.683267
Dent de Crolles,France,142.24 km,Sep,117,0,4,13,39,Sep:2 Jul:1 Jun:1 Aug:1 Dec:0 Nov:0 Oct:0 Apr:0 Mar:0,6,https://www.xcontest.org/world/en/flights-search/?filter[point]=5.848833%2045.309233&list[sort]=pts&list[dir]=down&filter[radius]=1000&list[num]=100,5.848833,45.309233
Kennedy,France,8.29 km,Dec May Mar Jan,117,0,1,1,6,Jul:1 Apr:1 Dec:0 Sep:0 Mar:0 Oct:0 May:0 Jun:0 Jan:0 Nov:0 Aug:0 Feb:0,11,https://www.xcontest.org/world/en/flights-search/?filter[point]=6.98273%2043.7026&list[sort]=pts&list[dir]=down&filter[radius]=1000&list[num]=100,6.98273,43.7026
Col di Tenda,France,51.16 km,Jul Aug Jun Sep,111,0,0,1,36,Jul:3 Aug:1 Jun:0 Sep:0 Nov:0 Oct:0 Jan:0,5,https://www.xcontest.org/world/en/flights-search/?filter[point]=7.56775%2044.15007&list[sort]=pts&list[dir]=down&filter[radius]=1000&list[num]=100,7.56775,44.15007
Varan,France,99.13 km,May Jul Jun Aug Sep Feb Apr Oct Mar Nov,106,0,0,4,14,May:1 Jul:1 Jun:1 Aug:0 Sep:0 Nov:0 Apr:0 Feb:0 Oct:0 Mar:0,10,https://www.xcontest.org/world/en/flights-search/?filter[point]=6.68183%2045.94495&list[sort]=pts&list[dir]=down&filter[radius]=1000&list[num]=100,6.68183,45.94495
Pic des Mouches,France,207.06 km,Aug Jul Jun May Sep Apr Oct Mar Jan Feb Dec Nov,105,2,24,57,83,Aug:2 Jul:1 May:1 Jun:0 Apr:0 Sep:0 Mar:0 Dec:0 Oct:0 Nov:0,7,https://www.xcontest.org/world/en/flights-search/?filter[point]=5.64432%2043.53913&list[sort]=pts&list[dir]=down&filter[radius]=1000&list[num]=100,5.64432,43.53913
La Bourgeoise,France,67.7 km,May Aug Sep Jul Oct,105,0,0,4,29,May:1 Aug:1 Oct:0 Sep:0 Jul:0 Jun:0 Apr:0 Nov:0,5,https://www.xcontest.org/world/en/flights-search/?filter[point]=6.71945%2046.11487&list[sort]=pts&list[dir]=down&filter[radius]=1000&list[num]=100,6.71945,46.11487
Val Pelouse,France,100.57 km,Aug May Jul Jun Sep,103,0,1,10,43,Jun:1 Sep:1 Jul:1 May:0 Aug:0 Apr:0 Nov:0,5,https://www.xcontest.org/world/en/flights-search/?filter[point]=6.16822%2045.41957&list[sort]=pts&list[dir]=down&filter[radius]=1000&list[num]=100,6.16822,45.41957
Le Sire,France,113.32 km,May Jul Sep Aug Jun Mar Apr Jan,99,0,3,13,48,May:1 Jul:0 Aug:0 Sep:0 Jun:0 Mar:0 Apr:0 Jan:0,5,https://www.xcontest.org/world/en/flights-search/?filter[point]=5.965833%2045.6308&list[sort]=pts&list[dir]=down&filter[radius]=1000&list[num]=100,5.965833,45.6308
Sire,France,60.52 km,Jul Oct Aug May Apr Sep Jun,99,0,3,13,48,May:1 Jul:0 Aug:0 Sep:0 Jun:0 Mar:0 Apr:0 Jan:0,5,https://www.xcontest.org/world/en/flights-search/?filter[point]=5.96608%2045.6309&list[sort]=pts&list[dir]=down&filter[radius]=1000&list[num]=100,5.96608,45.6309
Col du Granon,France,126.74 km,Oct Sep,95,0,7,31,76,Oct:1 Sep:1 Aug:0 Jun:0 Jul:0 Nov:0,3,https://www.xcontest.org/world/en/flights-search/?filter[point]=6.600033%2044.96955&list[sort]=pts&list[dir]=down&filter[radius]=1000&list[num]=100,6.600033,44.96955
Col des Fretes,France,97.05 km,Jul Jun Aug Sep May Oct Mar,92,0,0,10,29,Jul:1 Aug:1 Oct:1 Jun:1 May:1 Sep:0 Dec:0 Apr:0 Mar:0 Nov:0,7,https://www.xcontest.org/world/en/flights-search/?filter[point]=6.246683%2045.856367&list[sort]=pts&list[dir]=down&filter[radius]=1000&list[num]=100,6.246683,45.856367
Col de l'Arp...,France,303.04 km,May Jun,91,7,28,65,80,May:1 Jun:1 Aug:0 Jul:0 Apr:0 Sep:0,4,https://www.xcontest.org/world/en/flights-search/?filter[point]=6.42235%2045.79748&list[sort]=pts&list[dir]=down&filter[radius]=1000&list[num]=100,6.42235,45.79748
Agy Plane,France,116.74 km,Aug Jun Sep Jul May Apr Mar,90,0,1,3,31,Jun:1 Aug:1 Sep:0 Apr:0 Jul:0 May:0 Mar:0,5,https://www.xcontest.org/world/en/flights-search/?filter[point]=6.618868%2046.080027&list[sort]=pts&list[dir]=down&filter[radius]=1000&list[num]=100,6.618868,46.080027
Très le Mont,France,70.53 km,Jul Aug Jun May Apr Sep,89,0,0,6,42,May:1 Apr:1 Jul:1 Jun:0 Aug:0 Sep:0 Nov:0 Mar:0 Oct:0,5,https://www.xcontest.org/world/en/flights-search/?filter[point]=6.49013%2046.28632&list[sort]=pts&list[dir]=down&filter[radius]=1000&list[num]=100,6.49013,46.28632
Escalette,France,23.11 km,Aug Jul Oct Sep Mar May Apr Feb Jun,89,0,0,0,1,Aug:1 Oct:1 Sep:1 May:0 Mar:0 Apr:0 Jul:0 Feb:0 Nov:0 Jun:0 Dec:0 Jan:0,8,https://www.xcontest.org/world/en/flights-search/?filter[point]=5.569453%2043.536075&list[sort]=pts&list[dir]=down&filter[radius]=1000&list[num]=100,5.569453,43.536075
Col Vert,France,272.82 km,Jul Jun Aug May,86,19,66,75,81,Jul:0 May:0 Jun:0 Aug:0 Sep:0 Mar:0 Apr:0,4,https://www.xcontest.org/world/en/flights-search/?filter[point]=5.598618%2045.047895&list[sort]=pts&list[dir]=down&filter[radius]=1000&list[num]=100,5.598618,45.047895
Col des Aravis,France,227.14 km,Jul May Jun Aug Sep,85,5,25,51,77,Jun:1 Aug:0 May:0 Sep:0 Jul:0 Oct:0 Apr:0,5,https://www.xcontest.org/world/en/flights-search/?filter[point]=6.48282%2045.87942&list[sort]=pts&list[dir]=down&filter[radius]=1000&list[num]=100,6.48282,45.87942
Signes,France,105.52 km,May Jul Aug Oct Jun Feb Jan Dec Sep Apr Mar,84,0,1,3,7,Aug:1 Oct:0 Jul:0 May:0 Sep:0 Jun:0 Dec:0 Apr:0 Mar:0 Feb:0,7,https://www.xcontest.org/world/en/flights-search/?filter[point]=5.87325%2043.30223&list[sort]=pts&list[dir]=down&filter[radius]=1000&list[num]=100,5.87325,43.30223
Rabou,France,129.65 km,Aug May Jun Feb Sep Jul Jan Apr Mar,81,0,1,4,15,Sep:0 Jun:0 Feb:0 Apr:0 Mar:0 Aug:0 May:0,2,https://www.xcontest.org/world/en/flights-search/?filter[point]=6.019217%2044.5678&list[sort]=pts&list[dir]=down&filter[radius]=1000&list[num]=100,6.019217,44.5678
Mévouillon,France,41.46 km,Jul Aug Apr May Jun Sep,78,0,0,0,3,Jul:1 Aug:1 Sep:0 Jun:0 Apr:0 May:0 Mar:0 Oct:0,7,https://www.xcontest.org/world/en/flights-search/?filter[point]=5.47322%2044.22522&list[sort]=pts&list[dir]=down&filter[radius]=1000&list[num]=100,5.47322,44.22522
Col du Banchet,France,127.72 km,Mar Jul Jun May Feb Apr Aug,73,0,2,10,31,May:0 Mar:0 Apr:0 Jul:0 Jun:0 Aug:0 Feb:0 Oct:0,3,https://www.xcontest.org/world/en/flights-search/?filter[point]=5.731617%2045.5667&list[sort]=pts&list[dir]=down&filter[radius]=1000&list[num]=100,5.731617,45.5667
Le banchet,France,109.06 km,Apr Mar May Aug,73,0,2,10,31,May:0 Mar:0 Apr:0 Jul:0 Jun:0 Aug:0 Feb:0 Oct:0,3,https://www.xcontest.org/world/en/flights-search/?filter[point]=5.73073%2045.5662&list[sort]=pts&list[dir]=down&filter[radius]=1000&list[num]=100,5.73073,45.5662
Le Bouant,France,41.23 km,Apr Sep Mar Jul Jun May Oct Jan Feb Aug,69,0,0,0,9,Apr:1 Sep:0 Mar:0 May:0 Jun:0 Oct:0 Jul:0 Aug:0,7,https://www.xcontest.org/world/en/flights-search/?filter[point]=5.83925%2046.1612&list[sort]=pts&list[dir]=down&filter[radius]=1000&list[num]=100,5.83925,46.1612
Prarion,France,35.32 km,Aug Jul,66,0,0,0,9,Aug:2 Jul:1 Jun:0 Sep:0 Mar:0 Oct:0,5,https://www.xcontest.org/world/en/flights-search/?filter[point]=6.743667%2045.878383&list[sort]=pts&list[dir]=down&filter[radius]=1000&list[num]=100,6.743667,45.878383
Montaud,France,44.58 km,Sep May Jun Jul Aug,64,0,0,0,11,May:1 Aug:0 Jul:0 Jun:0 Sep:0 Mar:0,4,https://www.xcontest.org/world/en/flights-search/?filter[point]=5.574862%2045.244693&list[sort]=pts&list[dir]=down&filter[radius]=1000&list[num]=100,5.574862,45.244693
Sorgia,France,95.61 km,Sep Jun Jul Aug May Oct Nov Dec Mar Jan,63,0,0,10,18,Sep:1 Jun:0 Jul:0 Aug:0 May:0 Oct:0 Dec:0 Nov:0,5,https://www.xcontest.org/world/en/flights-search/?filter[point]=5.85568%2046.13778&list[sort]=pts&list[dir]=down&filter[radius]=1000&list[num]=100,5.85568,46.13778
St Vincent L...,France,156.98 km,Oct Sep Aug Apr,63,0,1,6,19,Aug:0 Sep:0 Jul:0 Jun:0 Jan:0 May:0,3,https://www.xcontest.org/world/en/flights-search/?filter[point]=6.21327%2044.4951&list[sort]=pts&list[dir]=down&filter[radius]=1000&list[num]=100,6.21327,44.4951
Allevard,France,88.96 km,Sep Mar Aug Jul Jan Dec Feb May,57,0,0,11,31,Aug:0 Jul:0 Dec:0 Mar:0 Jan:0,3,https://www.xcontest.org/world/en/flights-search/?filter[point]=6.147562%2045.385525&list[sort]=pts&list[dir]=down&filter[radius]=1000&list[num]=100,6.147562,45.385525
"Eybaudia, Al...",France,65.24 km,Jun,57,0,0,11,29,May:0 Jun:0 Sep:0 Aug:0 Jul:0 Apr:0,1,https://www.xcontest.org/world/en/flights-search/?filter[point]=6.37678%2045.6068&list[sort]=pts&list[dir]=down&filter[radius]=1000&list[num]=100,6.37678,45.6068
Le Belvédère,France,36.71 km,Aug May Sep Jun Jul Apr Oct,56,0,0,0,11,May:0 Aug:0 Jul:0 Jun:0 Apr:0 Sep:0 Mar:0 Oct:0,3,https://www.xcontest.org/world/en/flights-search/?filter[point]=5.593667%2045.089467&list[sort]=pts&list[dir]=down&filter[radius]=1000&list[num]=100,5.593667,45.089467
St. Marcel,France,281.23 km,Apr May,55,11,46,52,54,Apr:0 May:0 Mar:0,3,https://www.xcontest.org/world/en/flights-search/?filter[point]=5.96038%2045.44493&list[sort]=pts&list[dir]=down&filter[radius]=1000&list[num]=100,5.96038,45.44493
Aurel,France,27.16 km,Aug May Jul,55,0,1,8,15,Sep:0 Aug:0 Jul:0 May:0 Apr:0 Jun:0 Mar:0,3,https://www.xcontest.org/world/en/flights-search/?filter[point]=5.44125%2044.603383&list[sort]=pts&list[dir]=down&filter[radius]=1000&list[num]=100,5.44125,44.603383
La Flégère,France,305.04 km,Jul,54,5,10,16,33,Jul:0 Aug:0 Sep:0 Jun:0 Apr:0,1,https://www.xcontest.org/world/en/flights-search/?filter[point]=6.87432%2045.96843&list[sort]=pts&list[dir]=down&filter[radius]=1000&list[num]=100,6.87432,45.96843
Aiguines,France,82.49 km,Jul Aug Sep May Jun Oct Mar,51,0,0,8,19,Jul:1 Aug:0 Jun:0 Sep:0 Mar:0 May:0 Oct:0 Apr:0,4,https://www.xcontest.org/world/en/flights-search/?filter[point]=6.25357%2043.7696&list[sort]=pts&list[dir]=down&filter[radius]=1000&list[num]=100,6.25357,43.7696
Col d'Izoard,France,214.51 km,Nov Oct,50,1,4,17,37,Oct:0 Nov:0 Sep:0 Jul:0 Jun:0 Aug:0,3,https://www.xcontest.org/world/en/flights-search/?filter[point]=6.7231%2044.81407&list[sort]=pts&list[dir]=down&filter[radius]=1000&list[num]=100,6.7231,44.81407
Doussard,France,198.93 km,Jul,50,0,28,37,40,Jul:1 Jun:0 Apr:0 Aug:0,3,https://www.xcontest.org/world/en/flights-search/?filter[point]=6.22347%2045.77977&list[sort]=pts&list[dir]=down&filter[radius]=1000&list[num]=100,6.22347,45.77977
Le Morclan,France,197.02 km,Jul Aug Oct,49,0,5,10,36,Jul:0 Aug:0 Oct:0 Nov:0 Sep:0 Feb:0,2,https://www.xcontest.org/world/en/flights-search/?filter[point]=6.857317%2046.27655&list[sort]=pts&list[dir]=down&filter[radius]=1000&list[num]=100,6.857317,46.27655
Plan de la B...,France,303.24 km,Jun,47,15,36,39,42,Jun:1 Jul:0 May:0 Aug:0 Sep:0,5,https://www.xcontest.org/world/en/flights-search/?filter[point]=6.76362%2045.64862&list[sort]=pts&list[dir]=down&filter[radius]=1000&list[num]=100,6.76362,45.64862
Mont Blanc,France,91.14 km,Jun,46,0,0,8,31,Aug:0 Sep:0 Jun:0 Oct:0 Jul:0,1,https://www.xcontest.org/world/en/flights-search/?filter[point]=6.864392%2045.832312&list[sort]=pts&list[dir]=down&filter[radius]=1000&list[num]=100,6.864392,45.832312
Fourneby,France,289.1 km,Jun May Apr Mar Aug Sep,44,3,21,34,43,May:0 Aug:0 Jun:0 Mar:0 Apr:0 Oct:0,2,https://www.xcontest.org/world/en/flights-search/?filter[point]=6.892692%2043.827562&list[sort]=pts&list[dir]=down&filter[radius]=1000&list[num]=100,6.892692,43.827562
Sur Cou,France,319.16 km,Jul Aug May Sep Apr Jun,43,2,5,10,21,Aug:0 Jul:0 May:0 Apr:0 Jun:0 Sep:0,3,https://www.xcontest.org/world/en/flights-search/?filter[point]=6.3459%2046.02&list[sort]=pts&list[dir]=down&filter[radius]=1000&list[num]=100,6.3459,46.02
Les Grands M...,France,176.59 km,Aug Jul Sep Apr May,42,0,5,5,15,Aug:1 Jul:1 Sep:0 Apr:0,3,https://www.xcontest.org/world/en/flights-search/?filter[point]=6.960617%2045.946283&list[sort]=pts&list[dir]=down&filter[radius]=1000&list[num]=100,6.960617,45.946283
Frioland,France,167.45 km,May Sep Jul Aug Jun,42,0,3,5,10,Sep:0 Jul:0 Aug:0 Jun:0 May:0 Oct:0,7,https://www.xcontest.org/world/en/flights-search/?filter[point]=6.70168%2045.95&list[sort]=pts&list[dir]=down&filter[radius]=1000&list[num]=100,6.70168,45.95
Les Deux Alpes,France,75.71 km,Jun Jan Mar Jul Aug Feb,40,0,0,4,8,Mar:0 Jul:0 Jun:0 Aug:0 Feb:0 Oct:0 Sep:0,4,https://www.xcontest.org/world/en/flights-search/?filter[point]=6.145488%2044.998087&list[sort]=pts&list[dir]=down&filter[radius]=1000&list[num]=100,6.145488,44.998087
Chamrousse,France,99.08 km,Aug,39,0,0,17,32,Aug:1 Jul:0 Jun:0 Feb:0 Apr:0 Mar:0,3,https://www.xcontest.org/world/en/flights-search/?filter[point]=5.90203%2045.12722&list[sort]=pts&list[dir]=down&filter[radius]=1000&list[num]=100,5.90203,45.12722
La Scia,France,106.29 km,Aug Sep Jul Apr May,39,0,1,4,16,Aug:0 Jul:0 Sep:0 Apr:0 May:0,2,https://www.xcontest.org/world/en/flights-search/?filter[point]=5.84585%2045.345167&list[sort]=pts&list[dir]=down&filter[radius]=1000&list[num]=100,5.84585,45.345167
Col de la Loze,France,47.43 km,Feb Apr Mar,38,0,0,0,19,Feb:1 Mar:1 Apr:0,5,https://www.xcontest.org/world/en/flights-search/?filter[point]=6.59922%2045.40783&list[sort]=pts&list[dir]=down&filter[radius]=1000&list[num]=100,6.59922,45.40783
Saint Geniez,France,59.76 km,Aug Jun Apr May Mar Oct,38,0,0,2,7,Jun:1 Aug:0 Apr:0 Mar:0 Oct:0 May:0,3,https://www.xcontest.org/world/en/flights-search/?filter[point]=6.06287%2044.249393&list[sort]=pts&list[dir]=down&filter[radius]=1000&list[num]=100,6.06287,44.249393
Col de Tamié,France,182.4 km,Apr,38,0,10,26,32,Jun:0 Apr:0 May:0 Mar:0,2,https://www.xcontest.org/world/en/flights-search/?filter[point]=6.31877%2045.6828&list[sort]=pts&list[dir]=down&filter[radius]=1000&list[num]=100,6.31877,45.6828
Sospel,France,47.79 km,May Feb Jul Nov Sep Apr Aug Oct Jun,37,0,0,0,5,May:0 Sep:0 Jul:0 Feb:0 Nov:0 Apr:0 Jun:0 Aug:0 Oct:0,2,https://www.xcontest.org/world/en/flights-search/?filter[point]=7.46707%2043.91395&list[sort]=pts&list[dir]=down&filter[radius]=1000&list[num]=100,7.46707,43.91395
Montgellafrey,France,189.97 km,Mar,37,0,5,10,20,Mar:1 Feb:0 Jan:0 Apr:0 Sep:0 Jun:0,6,https://www.xcontest.org/world/en/flights-search/?filter[point]=6.31155%2045.39513&list[sort]=pts&list[dir]=down&filter[radius]=1000&list[num]=100,6.31155,45.39513
St Marcel,France,185.06 km,Apr,36,2,14,28,33,Apr:0 Aug:0 Jun:0,2,https://www.xcontest.org/world/en/flights-search/?filter[point]=5.96408%2045.4335&list[sort]=pts&list[dir]=down&filter[radius]=1000&list[num]=100,5.96408,45.4335
Montgirod,France,269.94 km,May Jun,34,11,21,28,31,Jun:0 May:0 Jul:0,2,https://www.xcontest.org/world/en/flights-search/?filter[point]=6.57323%2045.55367&list[sort]=pts&list[dir]=down&filter[radius]=1000&list[num]=100,6.57323,45.55367
Banon,France,118.4 km,Aug May Apr Sep Jun Oct Mar Jul Feb Jan,34,0,2,4,6,Aug:0 Oct:0 Sep:0 Apr:0 Jul:0 Jun:0 May:0 Mar:0,5,https://www.xcontest.org/world/en/flights-search/?filter[point]=5.635267%2044.04975&list[sort]=pts&list[dir]=down&filter[radius]=1000&list[num]=100,5.635267,44.04975
chatel,France,165.49 km,Jul,34,0,3,12,17,Jun:0 Dec:0 Sep:0 Jul:0 Aug:0 Mar:0 Oct:0,3,https://www.xcontest.org/world/en/flights-search/?filter[point]=5.81193%2044.811&list[sort]=pts&list[dir]=down&filter[radius]=1000&list[num]=100,5.81193,44.811
Mijoux,France,63.77 km,Jun Jul Aug Apr May Sep,33,0,0,8,19,Apr:0 Jun:0 Aug:0 Jul:0 May:0,2,https://www.xcontest.org/world/en/flights-search/?filter[point]=6.01058%2046.3663&list[sort]=pts&list[dir]=down&filter[radius]=1000&list[num]=100,6.01058,46.3663
Le Prorel,France,85.8 km,Aug Mar Feb Jan Apr Jul Oct Jun May Sep,32,0,0,3,9,Mar:0 Aug:0 Feb:0 Jul:0 Oct:0 Jan:0 Sep:0 May:0 Dec:0 Apr:0 Jun:0,3,https://www.xcontest.org/world/en/flights-search/?filter[point]=6.585767%2044.898983&list[sort]=pts&list[dir]=down&filter[radius]=1000&list[num]=100,6.585767,44.898983
Aussois,France,53.6 km,Jan Jul Feb Dec Jun Nov Mar Aug Sep,30,0,0,1,13,Jan:0 Feb:0 Dec:0 Jul:0 Mar:0 Nov:0,2,https://www.xcontest.org/world/en/flights-search/?filter[point]=6.736983%2045.254183&list[sort]=pts&list[dir]=down&filter[radius]=1000&list[num]=100,6.736983,45.254183
Métabief,France,75.79 km,Jul Aug Jun Sep May,29,0,0,1,8,Jul:1 Aug:0 Jun:0 Sep:0 May:0,5,https://www.xcontest.org/world/en/flights-search/?filter[point]=6.35718%2046.76045&list[sort]=pts&list[dir]=down&filter[radius]=1000&list[num]=100,6.35718,46.76045
Grand Ratz,France,155.7 km,Aug Jul Jun Oct Sep Mar Apr May,29,0,1,1,4,Oct:0 Aug:0 Jul:0 Sep:0 Jun:0 Mar:0 May:0,3,https://www.xcontest.org/world/en/flights-search/?filter[point]=5.63592%2045.3266&list[sort]=pts&list[dir]=down&filter[radius]=1000&list[num]=100,5.63592,45.3266
Le Mont d'Or,France,141.05 km,Jun May Aug Sep Jul Nov,29,0,1,3,6,Jun:0 Aug:0 May:0 Jul:0 Nov:0,5,https://www.xcontest.org/world/en/flights-search/?filter[point]=6.357277%2046.730052&list[sort]=pts&list[dir]=down&filter[radius]=1000&list[num]=100,6.357277,46.730052
Bozel,France,46.04 km,Aug Jul Sep Jun,28,0,0,0,11,Jul:0 Aug:0 Sep:0 Jun:0 Oct:0,2,https://www.xcontest.org/world/en/flights-search/?filter[point]=6.63942%2045.48505&list[sort]=pts&list[dir]=down&filter[radius]=1000&list[num]=100,6.63942,45.48505
Saint Pierre...,France,54.78 km,Sep Jun Mar Apr Jul,26,0,0,1,4,Sep:0 Mar:0 Jun:0 Apr:0 Feb:0 Aug:0 Jul:0 Oct:0 May:0,3,https://www.xcontest.org/world/en/flights-search/?filter[point]=5.3789%2045.1223&list[sort]=pts&list[dir]=down&filter[radius]=1000&list[num]=100,5.3789,45.1223
Beaurevers,France,42.24 km,Feb,24,0,0,0,6,Feb:1 Mar:0 Jan:0 Dec:0 Nov:0 Oct:0 May:0,3,https://www.xcontest.org/world/en/flights-search/?filter[point]=6.33003%2045.37137&list[sort]=pts&list[dir]=down&filter[radius]=1000&list[num]=100,6.33003,45.37137
Lesches-en-D...,France,194.61 km,Aug Mar Jun Sep Apr Feb Jul May,23,0,4,7,12,Mar:0 Aug:0 Jun:0 Apr:0 May:0 Jul:0,1,https://www.xcontest.org/world/en/flights-search/?filter[point]=5.54297%2044.60862&list[sort]=pts&list[dir]=down&filter[radius]=1000&list[num]=100,5.54297,44.60862
Grammont,France,9.57 km,Jul Oct Jun Aug Sep,21,0,0,1,2,Jul:0 Aug:0 May:0 Jun:0,2,https://www.xcontest.org/world/en/flights-search/?filter[point]=6.724917%2046.380317&list[sort]=pts&list[dir]=down&filter[radius]=1000&list[num]=100,6.724917,46.380317
Courchevel,France,17.56 km,Aug,20,0,0,0,0,Aug:1 Jun:0 Sep:0,2,https://www.xcontest.org/world/en/flights-search/?filter[point]=6.61472%2045.41095&list[sort]=pts&list[dir]=down&filter[radius]=1000&list[num]=100,6.61472,45.41095
Roche de Mio,France,188.9 km,Apr Dec Jan Aug Mar Jul May,20,0,2,2,4,Dec:0 Jun:0 Apr:0 Mar:0,2,https://www.xcontest.org/world/en/flights-search/?filter[point]=6.73025%2045.4899&list[sort]=pts&list[dir]=down&filter[radius]=1000&list[num]=100,6.73025,45.4899
Fort de la P...,France,220.73 km,Jun Apr May,19,1,7,14,16,Jun:0 May:0 Apr:0 Oct:0 Sep:0 Jul:0,2,https://www.xcontest.org/world/en/flights-search/?filter[point]=6.74448%2045.63733&list[sort]=pts&list[dir]=down&filter[radius]=1000&list[num]=100,6.74448,45.63733
Serre Buzard,France,164.26 km,May Mar Apr,19,0,5,8,14,May:0 Apr:0 Mar:0 Aug:0,1,https://www.xcontest.org/world/en/flights-search/?filter[point]=6.544717%2044.639733&list[sort]=pts&list[dir]=down&filter[radius]=1000&list[num]=100,6.544717,44.639733
Moucherotte,France,182.68 km,Aug Jun Jul Sep May Apr Mar,19,0,5,8,12,Aug:0 Apr:0 Jun:0 Sep:0 Mar:0 Jul:0 May:0,2,https://www.xcontest.org/world/en/flights-search/?filter[point]=5.63715%2045.1502&list[sort]=pts&list[dir]=down&filter[radius]=1000&list[num]=100,5.63715,45.1502
Col du Fer,France,173.86 km,May Jun,19,0,7,13,17,May:0 Sep:0 Jul:0 Jun:0 Mar:0 Aug:0,2,https://www.xcontest.org/world/en/flights-search/?filter[point]=6.38433%2045.78453&list[sort]=pts&list[dir]=down&filter[radius]=1000&list[num]=100,6.38433,45.78453
Les Arcs,France,76.62 km,Jun Mar Sep,19,0,0,3,6,Jul:0 Jun:0 May:0 Sep:0,1,https://www.xcontest.org/world/en/flights-search/?filter[point]=6.76389%2045.5567&list[sort]=pts&list[dir]=down&filter[radius]=1000&list[num]=100,6.76389,45.5567
Solaure,France,77.03 km,Aug Sep Apr Jun Jul Oct May Feb Mar,18,0,0,6,7,Aug:0 Apr:0 Sep:0 Jul:0 Oct:0 Mar:0,2,https://www.xcontest.org/world/en/flights-search/?filter[point]=5.353888%2044.691442&list[sort]=pts&list[dir]=down&filter[radius]=1000&list[num]=100,5.353888,44.691442
Vuache,France,28.52 km,Sep Oct,17,0,0,0,3,Oct:0 Sep:0 Jun:0 Mar:0,2,https://www.xcontest.org/world/en/flights-search/?filter[point]=5.946953%2046.051492&list[sort]=pts&list[dir]=down&filter[radius]=1000&list[num]=100,5.946953,46.051492
Baou de la G...,France,109.5 km,Sep Oct Jun,17,0,2,11,16,Oct:0 Sep:0 Jun:0 Dec:0 Mar:0 Jan:0 Apr:0,2,https://www.xcontest.org/world/en/flights-search/?filter[point]=7.149767%2043.756417&list[sort]=pts&list[dir]=down&filter[radius]=1000&list[num]=100,7.149767,43.756417
Mison,France,10.57 km,Aug Jun,17,0,0,0,0,Jun:0 Jul:0,1,https://www.xcontest.org/world/en/flights-search/?filter[point]=5.8359%2044.2796&list[sort]=pts&list[dir]=down&filter[radius]=1000&list[num]=100,5.8359,44.2796
Les Brasses,France,69.26 km,Jun Aug May Apr Oct Mar Jul,15,0,0,1,6,Jun:0 Apr:0 Oct:0 Aug:0 Mar:0 May:0,4,https://www.xcontest.org/world/en/flights-search/?filter[point]=6.44398%2046.16665&list[sort]=pts&list[dir]=down&filter[radius]=1000&list[num]=100,6.44398,46.16665
Col du Gollet,France,40.21 km,Jun Jul,14,0,0,0,2,Jun:1 Jul:0 Mar:0,3,https://www.xcontest.org/world/en/flights-search/?filter[point]=6.45505%2045.4464&list[sort]=pts&list[dir]=down&filter[radius]=1000&list[num]=100,6.45505,45.4464
Collette de ...,France,5.98 km,Dec Jan,14,0,0,0,0,Dec:0 Jan:0,1,https://www.xcontest.org/world/en/flights-search/?filter[point]=6.9585%2044.795383&list[sort]=pts&list[dir]=down&filter[radius]=1000&list[num]=100,6.9585,44.795383
La Lavina,France,71.43 km,May Sep Aug Apr Feb Mar,14,0,0,2,3,May:0 Apr:0 Sep:0 Aug:0 Mar:0,1,https://www.xcontest.org/world/en/flights-search/?filter[point]=7.41355%2043.86693&list[sort]=pts&list[dir]=down&filter[radius]=1000&list[num]=100,7.41355,43.86693
Le Mole,France,29.73 km,Oct Jan Jul May,14,0,0,0,6,Oct:0 Sep:0 May:0,1,https://www.xcontest.org/world/en/flights-search/?filter[point]=6.45708%2046.1051&list[sort]=pts&list[dir]=down&filter[radius]=1000&list[num]=100,6.45708,46.1051
Cuges Les Pins,France,22.37 km,Apr May Mar Jun,13,0,0,0,1,Apr:0 May:0 Jun:0 Mar:0,2,https://www.xcontest.org/world/en/flights-search/?filter[point]=5.6929%2043.28245&list[sort]=pts&list[dir]=down&filter[radius]=1000&list[num]=100,5.6929,43.28245
Col du Galibier,France,316.69 km,Jul,13,10,13,13,13,Jul:0 Aug:0,1,https://www.xcontest.org/world/en/flights-search/?filter[point]=6.42085%2045.08695&list[sort]=pts&list[dir]=down&filter[radius]=1000&list[num]=100,6.42085,45.08695
Gache,France,76.61 km,Jun Jul Aug May Mar Feb Sep,13,0,0,2,6,Mar:0 Sep:0 Aug:0 Jun:0 May:0,3,https://www.xcontest.org/world/en/flights-search/?filter[point]=5.979%2044.2247&list[sort]=pts&list[dir]=down&filter[radius]=1000&list[num]=100,5.979,44.2247
Alpe d'Huez,France,69.91 km,Mar Apr Jun Jul Sep Dec Feb May,12,0,0,1,3,Mar:0 Jun:0 May:0 Feb:0 Sep:0 Dec:0 Jul:0 Apr:0,2,https://www.xcontest.org/world/en/flights-search/?filter[point]=6.0603%2045.101233&list[sort]=pts&list[dir]=down&filter[radius]=1000&list[num]=100,6.0603,45.101233
Ribiers,France,85.9 km,Jul Sep May Jun Apr Feb,12,0,0,8,12,Jun:0 May:0 Apr:0,2,https://www.xcontest.org/world/en/flights-search/?filter[point]=5.78478%2044.20962&list[sort]=pts&list[dir]=down&filter[radius]=1000&list[num]=100,5.78478,44.20962
Saint Andre ...,France,38.33 km,Sep,12,0,0,2,6,Oct:0 Sep:0 Feb:0,1,https://www.xcontest.org/world/en/flights-search/?filter[point]=6.45907%2044.0472&list[sort]=pts&list[dir]=down&filter[radius]=1000&list[num]=100,6.45907,44.0472
Tourrettes-s...,France,105.75 km,May Jul Jun Oct,11,0,1,1,2,Oct:0 Jul:0,2,https://www.xcontest.org/world/en/flights-search/?filter[point]=7.048767%2043.7389&list[sort]=pts&list[dir]=down&filter[radius]=1000&list[num]=100,7.048767,43.7389
Aureille,France,245.94 km,Jun May Mar Apr Sep Jul Feb,11,2,4,8,9,Mar:0 Jun:0 May:0 Apr:0,2,https://www.xcontest.org/world/en/flights-search/?filter[point]=5.645917%2044.562783&list[sort]=pts&list[dir]=down&filter[radius]=1000&list[num]=100,5.645917,44.562783
Meribel,France,223.24 km,Aug Apr Jul,8,1,1,1,3,Jul:0 Apr:0 Aug:0,2,https://www.xcontest.org/world/en/flights-search/?filter[point]=6.55137%2045.37005&list[sort]=pts&list[dir]=down&filter[radius]=1000&list[num]=100,6.55137,45.37005
L'Eclose,France,31.89 km,May Jul Apr Nov Jun Aug,8,0,0,0,1,May:0 Jul:0 Aug:0 Apr:0 Jun:0 Nov:0,2,https://www.xcontest.org/world/en/flights-search/?filter[point]=6.064367%2045.087067&list[sort]=pts&list[dir]=down&filter[radius]=1000&list[num]=100,6.064367,45.087067
Mont Guillaume,France,120.74 km,May Jun Apr Jan Jul,8,0,1,2,4,May:0 Jun:0 Jan:0 Apr:0,1,https://www.xcontest.org/world/en/flights-search/?filter[point]=6.432333%2044.5685&list[sort]=pts&list[dir]=down&filter[radius]=1000&list[num]=100,6.432333,44.5685
Col du Joly,France,11.84 km,May Oct Jun,8,0,0,0,0,Sep:0 Aug:0,2,https://www.xcontest.org/world/en/flights-search/?filter[point]=6.67042%2045.7869&list[sort]=pts&list[dir]=down&filter[radius]=1000&list[num]=100,6.67042,45.7869
Belvédère ...,France,107.31 km,Jan,7,0,1,1,2,Apr:0 Jan:0,1,https://www.xcontest.org/world/en/flights-search/?filter[point]=6.599653%2047.072692&list[sort]=pts&list[dir]=down&filter[radius]=1000&list[num]=100,6.599653,47.072692
Torgon,France,67.7 km,Sep,7,0,0,2,2,Oct:0 Nov:0 Aug:0,1,https://www.xcontest.org/world/en/flights-search/?filter[point]=6.823933%2046.309617&list[sort]=pts&list[dir]=down&filter[radius]=1000&list[num]=100,6.823933,46.309617
St. André,France,55.97 km,Sep Aug,6,0,0,1,4,May:0 Sep:0 Aug:0,1,https://www.xcontest.org/world/en/flights-search/?filter[point]=6.41563%2043.99427&list[sort]=pts&list[dir]=down&filter[radius]=1000&list[num]=100,6.41563,43.99427